{
	"regions": {
		"North West": 7052000,
		"North East": 2597000,
		"South West": 5289000,
		"South East": 8635000,
		"East Midlands": 4533000,
		"West Midlands": 5602000,
		"East of England": 5847000,
		"London": 8204100,
		"Yorkshire and the Humber": 5284000,
		"Wales": 3063456,
		"Scotland": 5327700
	},
	"awards": [
		{ "year": 2014, "round": "2014A", "amount": 3000, "title": "CHaOS Summer Roadshow 2014", "org": "Cambridge Hands On Science (CHaOS)", "location": "Cambridge", "region": "East of England", "source": "http://www.stfc.ac.uk/files/1838/1838_res_1.pdf" },
		{ "year": 2014, "round": "2014A", "amount": 5000, "title": "Classroom Hangouts with Spacelink Experts: to extend and develop outreach and communication between the space science and the education communities", "org": "Spacelink Learning Foundation", "location": "Guilford", "region": "South East", "source": "http://www.stfc.ac.uk/files/1838/1838_res_1.pdf" },
		{ "year": 2014, "round": "2014A", "amount": 8996, "title": "Lego Rovers Evolution", "org": "University of Liverpool", "location": "Liverpool", "region": "North West", "source": "http://www.stfc.ac.uk/files/1838/1838_res_1.pdf" },
		{ "year": 2014, "round": "2014A", "amount": 9922, "title": "The Enlightenment Cafe: New Atlantis - Multidisciplinary theatre exploring the technology behind satellites and science of measuring Climate Change", "org": "LAStheatre C.I.C", "location": "London", "region": "London", "source": "http://www.stfc.ac.uk/files/1838/1838_res_1.pdf" },
		{ "year": 2014, "round": "2014A", "amount": 9250, "title": "Curved words: stories of space, time and light", "org": "Freight Design (Scotland) Ltd", "location": "Glasgow", "region": "Scotland", "source": "http://www.stfc.ac.uk/files/1838/1838_res_1.pdf" },
		{ "year": 2014, "round": "2014A", "amount": 9581, "title": "Catch a Shooting Star", "org": "Open University", "location": "Manchester", "region": "North West", "source": "http://www.stfc.ac.uk/files/1838/1838_res_1.pdf" },
		{ "year": 2014, "round": "2014A", "amount": 1630, "title": "Microscopy Summer School for GCSE Students", "org": "University of Glasgow", "location": "Glasgow", "region": "Scotland", "source": "http://www.stfc.ac.uk/files/1838/1838_res_1.pdf" },
		{ "year": 2014, "round": "2014A", "amount": 5520, "title": "Unlimited Space Agency - Research & Development", "org": "Unlimited Theatre", "location": "Leeds", "region": "Yorkshire and the Humber", "source": "http://www.stfc.ac.uk/files/1838/1838_res_1.pdf" },
		{ "year": 2014, "round": "2014A", "amount": 6292, "title": "Crystals within crystals: The story of sea ice", "org": "Bangor University", "location": "Bangor", "region": "Wales", "source": "http://www.stfc.ac.uk/files/1838/1838_res_1.pdf" },
		{ "year": 2014, "round": "2014A", "amount": 9150, "title": "Oculus Rift Planetarium", "org": "University of Edinburgh", "location": "Edinburgh", "region": "Scotland", "source": "http://www.stfc.ac.uk/files/1838/1838_res_1.pdf" },
		{ "year": 2014, "round": "2014A", "amount": 1852, "title": "Astronomy in The City", "org": "University of Birmingham", "location": "Birmingham", "region": "West Midlands", "source": "http://www.stfc.ac.uk/files/1838/1838_res_1.pdf" },
		{ "year": 2014, "round": "2014A", "amount": 9968, "title": "Printing the Moon", "org": "University of Dundee", "location": "Dundee", "region": "Scotland", "source": "http://www.stfc.ac.uk/files/1838/1838_res_1.pdf" },
		{ "year": 2014, "round": "2014A", "amount": 10000, "title": "CERN LIVE event at the Gravity Fields Festival", "org": "South Kesteven District Council", "location": "Grantham", "region": "East Midlands", "source": "http://www.stfc.ac.uk/files/1838/1838_res_1.pdf" },
		{ "year": 2014, "round": "2014A", "amount": 5000, "title": "Building self - esteem with regard to learning in science (physics) within a special school and for underachievers in a mainstream setting", "org": "Alfriston School", "location": "Beaconsfield", "region": "South East", "source": "http://www.stfc.ac.uk/files/1838/1838_res_1.pdf" },
		{ "year": 2013, "round": "2013B", "amount": 9500, "title": "The Mighty Sky UK", "org": "University of Glamorgan", "location": "Glamorgan", "region": "Wales", "source": "http://www.stfc.ac.uk/resources/pdf/PE%20Small%20Awards%20Winners%202013B.pdf" },
		{ "year": 2013, "round": "2013B", "amount": 9954, "title": "MARSBalloon National Pilot", "org": "Systems Engineering and Assessment Ltd", "location": "Beckington", "region": "South West", "source": "http://www.stfc.ac.uk/resources/pdf/PE%20Small%20Awards%20Winners%202013B.pdf" },
		{ "year": 2013, "round": "2013B", "amount": 9114, "title": "Nature Beyond the Skies", "org": "Bristol Natural History Consortium", "location": "Bristol", "region": "South West", "source": "http://www.stfc.ac.uk/resources/pdf/PE%20Small%20Awards%20Winners%202013B.pdf" },
		{ "year": 2013, "round": "2013B", "amount": 9974, "title": "Astrocampus - An Outreach Facility for Engagement with Schools and the General Public", "org": "University of York", "location": "York", "region": "Yorkshire and the Humber", "source": "http://www.stfc.ac.uk/resources/pdf/PE%20Small%20Awards%20Winners%202013B.pdf" },
		{ "year": 2013, "round": "2013B", "amount": 5576, "title": "", "org": "University of Manchester", "location": "Manchester", "region": "North West", "source": "http://www.stfc.ac.uk/resources/pdf/PE%20Small%20Awards%20Winners%202013B.pdf" },
		{ "year": 2013, "round": "2013B", "amount": 10000, "title": "Cosmology Exhibition at the National Eisteddfod of Wales 2014", "org": "National Eisteddfod of Wales", "location": "Llanelli", "region": "Wales", "source": "http://www.stfc.ac.uk/resources/pdf/PE%20Small%20Awards%20Winners%202013B.pdf" },
		{ "year": 2013, "round": "2013B", "amount": 5160, "title": "Space 2014 - A Conference of astronomical proportions!", "org": "Balshaws High School", "location": "Leyland", "region": "North West", "source": "http://www.stfc.ac.uk/resources/pdf/PE%20Small%20Awards%20Winners%202013B.pdf" },
		{ "year": 2013, "round": "2013B", "amount": 8535, "title": "UKCA - NASA Astrobiology Summer Academy 2014", "org": "University of Edinburgh", "location": "Edinburgh", "region": "Scotland", "source": "http://www.stfc.ac.uk/resources/pdf/PE%20Small%20Awards%20Winners%202013B.pdf" },
		{ "year": 2013, "round": "2013B", "amount": 4230, "title": "Detecting cosmic rays with a spark chamber; connecting with particle physics and astronomy", "org": "University of Birmingham", "location": "Birmingham", "region": "West Midlands", "source": "http://www.stfc.ac.uk/resources/pdf/PE%20Small%20Awards%20Winners%202013B.pdf" },
		{ "year": 2013, "round": "2013B", "amount": 8318, "title": "Higgs Boson Decays in the Lancaster Particle Physics Package", "org": "University of Lancaster", "location": "Lancaster", "region": "North West", "source": "http://www.stfc.ac.uk/resources/pdf/PE%20Small%20Awards%20Winners%202013B.pdf" },
		{ "year": 2013, "round": "2013B", "amount": 9628, "title": "Writer in Residence at the Mullard Space Science Laboratory (MSSL)", "org": "University College London", "location": "Dorking", "region": "South East", "source": "http://www.stfc.ac.uk/resources/pdf/PE%20Small%20Awards%20Winners%202013B.pdf" },
		{ "year": 2013, "round": "2013B", "amount": 10000, "title": "The story of Philae: engaging the public throughout 2014 with the Rosetta cometary mission and the Philae lander at the UK site of the Philae obelisk", "org": "Open University", "location": "Kingston Lacy", "region": "South West", "source": "http://www.stfc.ac.uk/resources/pdf/PE%20Small%20Awards%20Winners%202013B.pdf" },
		{ "year": 2013, "round": "2013A", "amount": 6350, "title": "The transparent observatory: opening the James Gregory Telescope to the public", "org": "University of St Andrews", "location": "St Andrews", "region": "Scotland", "source": "http://www.stfc.ac.uk/resources/pdf/PE%20Small%20Awards%20Winners%202013A.pdf" },
		{ "year": 2013, "round": "2013A", "amount": 2625, "title": "Another Way of Seeing - Contemporary Art responds to Planetary Science", "org": "University College London", "location": "London", "region": "London", "source": "http://www.stfc.ac.uk/resources/pdf/PE%20Small%20Awards%20Winners%202013A.pdf" },
		{ "year": 2013, "round": "2013A", "amount": 9987, "title": "Three Minute Learning - an online story library and interactive resource that uses proven pedagogies to improve understanding of STFC research", "org": "University of Glasgow", "location": "Glasgow", "region": "Scotland", "source": "http://www.stfc.ac.uk/resources/pdf/PE%20Small%20Awards%20Winners%202013A.pdf" },
		{ "year": 2013, "round": "2013A", "amount": 9996, "title": "Lights in the Sky 'Planetarium Show'", "org": "Techniquest", "location": "Cardiff", "region": "Wales", "source": "http://www.stfc.ac.uk/resources/pdf/PE%20Small%20Awards%20Winners%202013A.pdf" },
		{ "year": 2013, "round": "2013A", "amount": 8182, "title": "Sound Science", "org": "now>press>play", "location": "London", "region": "London", "source": "http://www.stfc.ac.uk/resources/pdf/PE%20Small%20Awards%20Winners%202013A.pdf" },
		{ "year": 2013, "round": "2013A", "amount": 9800, "title": "Multi Media Space", "org": "The Ideas Foundation", "location": "Manchester", "region": "North West", "source": "http://www.stfc.ac.uk/resources/pdf/PE%20Small%20Awards%20Winners%202013A.pdf" },
		{ "year": 2013, "round": "2013A", "amount": 2300, "title": "Langton Robotic Telescope providing wide access to a 16 inch Schmidt Cassegrain telescope via the web for schools and the public.", "org": "Langton Star Centre", "location": "Canterbury", "region": "South East", "source": "http://www.stfc.ac.uk/resources/pdf/PE%20Small%20Awards%20Winners%202013A.pdf" },
		{ "year": 2013, "round": "2013A", "amount": 2000, "title": "Radiation, radioactivity and your local environment", "org": "University of Glasgow", "location": "Glasgow", "region": "Scotland", "source": "http://www.stfc.ac.uk/resources/pdf/PE%20Small%20Awards%20Winners%202013A.pdf" },
		{ "year": 2013, "round": "2013A", "amount": 9660, "title": "Republic of the Moon", "org": "The Arts Catalyst", "location": "London", "region": "London", "source": "http://www.stfc.ac.uk/resources/pdf/PE%20Small%20Awards%20Winners%202013A.pdf" },
		{ "year": 2013, "round": "2013A", "amount": 4000, "title": "Seeing the Sun in a new light", "org": "Keele University", "location": "Newcastle-under-Lyme", "region": "West Midlands", "source": "http://www.stfc.ac.uk/resources/pdf/PE%20Small%20Awards%20Winners%202013A.pdf" },
		{ "year": 2013, "round": "2013A", "amount": 10000, "title": "National Astronomy Week 2014: Target Jupiter", "org": "The Observatory Science Centre", "location": "Herstmonceux", "region": "South East", "source": "http://www.stfc.ac.uk/resources/pdf/PE%20Small%20Awards%20Winners%202013A.pdf" },
		{ "year": 2013, "round": "2013A", "amount": 9973, "title": "When a butterfly flaps its wings......", "org": "University of the West of England", "location": "Bristol", "region": "South West", "source": "http://www.stfc.ac.uk/resources/pdf/PE%20Small%20Awards%20Winners%202013A.pdf" },
		{ "year": 2000, "round": "2000B", "amount": 2000, "title": "PARTICLE PHYSICS LECTURES", "org": "Queen Mary & Westfield College", "location": "London", "region": "London", "source": "" },
		{ "year": 2000, "round": "2000B", "amount": 1200, "title": "MULTI MEDIA PRESENTATIONS AND SELF-LEARNING PACKAGES", "org": " University of Plymouth", "location": "Plymouth", "region": "South West", "source": "" },
		{ "year": 2000, "round": "2000B", "amount": 900, "title": "PEP EXHIBITION AT EDINBURGH SCIENCE FESTIVAL", "org": "Edinburgh University", "location": "Edinburgh", "region": "Scotland", "source": "" },
		{ "year": 2000, "round": "2000B", "amount": 4000, "title": "SCALE MODEL OF THE SOLAR SYSTEM", "org": "Sevenoaks", "location": "South East", "region": "", "source": "" },
		{ "year": 2000, "round": "2000B", "amount": 7500, "title": "BIOMEDICAL TECHNOLOGY SPIN OFF FROM THE LHC", "org": "University of Glasgow", "location": "Glasgow", "region": "Scotland", "source": "" },
		{ "year": 2000, "round": "2000B", "amount": 5000, "title": "THE VIRTUAL METEORITE EXHIBITION", "org": "Natural History Museum", "location": "London", "region": "London", "source": "" },
		{ "year": 2000, "round": "2000B", "amount": 500, "title": "LIFT OFF ROCKET GUIDE FOR ASE CONFERENCE", "org": "University of Surrey", "location": "Guilford", "region": "South East", "source": "" },
		{ "year": 2000, "round": "2000B", "amount": 2950, "title": "DIGITAL IMAGING EQUIPMENT PURCHASE", "org": "Norwich Astronomical Society", "location": "Norwich", "region": "East of England", "source": "" },
		{ "year": 2000, "round": "2000B", "amount": 5000, "title": "BIRMINGHAM SCHOOLS' WEBSITE, PHASE TWO", "org": "University of Birmingham", "location": "Birmingham", "region": "West Midlands", "source": "" },
		{ "year": 2000, "round": "2000B", "amount": 4000, "title": "THE CARDIFF RADIO OBSERVATORY", "org": "University of Wales", "location": "Cardiff", "region": "Wales", "source": "" },
		{ "year": 2000, "round": "2000B", "amount": 360, "title": "Space", "org": "", "location": "Liverpool", "region": "North West", "source": "" },
		{ "year": 2000, "round": "2000B", "amount": 2200, "title": "A BRIEF HISTORY OF TIME", "org": "CCA @ McLellan Galleries", "location": "Glasgow", "region": "Scotland", "source": "" },
		{ "year": 2000, "round": "2000B", "amount": 5000, "title": "CONNECTIONS IN SPACE: FROM THE QUANTUM TO THE COSMOS", "org": "DAMTP", "location": "Cambridge", "region": "East of England", "source": "" },
		{ "year": 2000, "round": "2000B", "amount": 1410, "title": "WOMEN IN ASTRONOMY AND GEOPHYSICS BROCHURE", "org": "CCLRC", "location": "Didcot", "region": "South East", "source": "" },
		{ "year": 2000, "round": "2000B", "amount": 2800, "title": "GCSE ASTRONOMY GUIDE", "org": "", "location": "Lytham St Annes", "region": "North West", "source": "" },
		{ "year": 2000, "round": "2000B", "amount": 2000, "title": "GENERATION MARS' EDUCATIONAL YOUTH COMPETITION", "org": "", "location": "West Kirby", "region": "North West", "source": "" },
		{ "year": 2000, "round": "2000B", "amount": 4000, "title": "MOON PHASES, A PILOT PROJECT", "org": "University College London", "location": "London", "region": "London", "source": "" },
		{ "year": 2000, "round": "2000B", "amount": 400, "title": "INDUSTRY WEEK PROJECT - SPACE SCIENCE", "org": "Ladymead Community School", "location": "Taunton", "region": "South West", "source": "" },
		{ "year": 2000, "round": "2000B", "amount": 5000, "title": "NEW DOME FOR SCHOOLS' PLANETARIUM", "org": "Mizar Astronomy", "location": "Dorset", "region": "South West", "source": "" },
		{ "year": 2000, "round": "2000B", "amount": 600, "title": "HEAVENS ABOVE", "org": "Erasmus Darwin Foundation", "location": "Lichfield", "region": "West Midlands", "source": "" },
		{ "year": 2000, "round": "2000B", "amount": 6092, "title": "SCHOOLS POP-BOTTLE MAGNETOMETER NETWORK (POP-MAGNET)", "org": "University of York", "location": "York", "region": "Yorkshire and the Humber", "source": "" },
		{ "year": 2000, "round": "2000A", "amount": 500, "title": "STIMULATING AN INTEREST IN ASTRONOMY", "org": "Swinton Comprehensive School", "location": "Rotherham", "region": "Yorkshire and the Humber", "source": "" },
		{ "year": 2000, "round": "2000A", "amount": 600, "title": "COMSET CONTINUATION (SPACE)", "org": "University of Sunderland", "location": "Sunderland", "region": "North East", "source": "" },
		{ "year": 2000, "round": "2000A", "amount": 3500, "title": "SEEING STARS II - ASTRONOMY & SPACE SCIENCE FOR THE VISUALLY IMPAIRED", "org": "Leicester University", "location": "Leicester", "region": "East Midlands", "source": "" },
		{ "year": 2000, "round": "2000A", "amount": 7500, "title": "COSMOLOGY MEETS COMEDY", "org": "University of Glasgow", "location": "Glasgow", "region": "Scotland", "source": "" },
		{ "year": 2000, "round": "2000A", "amount": 4450, "title": "FULWOOD EXTENSIVE AIR SHOWER ARRAY PROJECT", "org": "Preston College", "location": "Preston", "region": "North West", "source": "" },
		{ "year": 2000, "round": "2000A", "amount": 500, "title": "12th ANNUAL UKSEDS SPACE CONFERENCE", "org": "Manchester University", "location": "Manchester", "region": "North West", "source": "" },
		{ "year": 2000, "round": "2000A", "amount": 600, "title": "CIFEST - EDUCATIONAL SCIENCE FAIR", "org": "Robert Manning Technology College", "location": "Bourne", "region": "East Midlands", "source": "" },
		{ "year": 2000, "round": "2000A", "amount": 5000, "title": "BRINGING THE ORACLE OF DELPHI TO THE UK", "org": "Geneva", "location": "International", "region": "", "source": "" },
		{ "year": 2000, "round": "2000A", "amount": 8000, "title": "ACCESSING THE LOVELL RADIO TELESCOPE", "org": "Jodrell Bank Science Centre", "location": "Macclesfield", "region": "North West", "source": "" },
		{ "year": 2000, "round": "2000A", "amount": 2500, "title": "CORNWALL SCHOOLS ASTRONOMY PROJECT - GCSE ASTRONOMY", "org": "Treviglas Community College", "location": "Newquay", "region": "South West", "source": "" },
		{ "year": 2000, "round": "2000A", "amount": 2000, "title": "COMMUNICATING ROCKET SCIENCE", "org": "University of Salford", "location": "Salford", "region": "North West", "source": "" },
		{ "year": 2000, "round": "2000A", "amount": 4800, "title": "NASA JOHNSON SPACE CENTER PROJECT - 2000", "org": "The Education Business Partnership", "location": "Llandysul", "region": "Wales", "source": "" },
		{ "year": 2000, "round": "2000A", "amount": 3000, "title": "VIRTUAL RADIOACTIVITY LABORATORY FOR SECONDARY EDUCATION", "org": "University of Nottingham", "location": "Nottingham", "region": "East Midlands", "source": "" },
		{ "year": 2000, "round": "2000A", "amount": 4000, "title": "HERSTMONCEUX ASTROGRAPHIC DISCOVER", "org": "Inspire", "location": "Norwich", "region": "East of England", "source": "" },
		{ "year": 2000, "round": "2000A", "amount": 5000, "title": "MUSIC OF THE SPHERES", "org": "University of Bath", "location": "Bath", "region": "South West", "source": "" },
		{ "year": 2000, "round": "2000A", "amount": 2032, "title": "SPACE SCIENCE: CONTINUITY AND PROGRESSION", "org": "Mr J Moreland", "location": "Twickenham", "region": "London", "source": "" },
		{ "year": 2000, "round": "2000A", "amount": 1500, "title": "NATIONAL SIXTH FORM 'FRONTIERS OF SCIENCE' CONFERENCE", "org": "The Kings School", "location": "Canterbury", "region": "South East", "source": "" },
		{ "year": 2000, "round": "2000A", "amount": 4500, "title": "SUPPORT FOR ASTRONOMY ROADSHOW", "org": "University of St Andrews", "location": "St Andrews", "region": "Scotland", "source": "" },
		{ "year": 1999, "round": "1999B", "amount": 2600, "title": "THE MAGIC OF THE COSMOS", "org": "University of Glasgow", "location": "Glasgow", "region": "Scotland", "source": "" },
		{ "year": 1999, "round": "1999B", "amount": 5000, "title": "PROJECTS FOR THE MILLENNIUM 'FROM QUARKS TO THE COSMOS EXHIBITION'", "org": "The University of Birmingham", "location": "Birmingham", "region": "West Midlands", "source": "" },
		{ "year": 1999, "round": "1999B", "amount": 3459, "title": "MEASURING THE MUON LIFETIME", "org": "Royal Holloway and Bedford New College", "location": "Egham", "region": "South East", "source": "" },
		{ "year": 1999, "round": "1999B", "amount": 3000, "title": "LIVERPOOL CHILDRENâ€™S ASTRONOMY WEBSITE", "org": "The Alsop High School", "location": "Liverpool", "region": "North West", "source": "" },
		{ "year": 1999, "round": "1999B", "amount": 4000, "title": "YOUR PLACE IN SPACE", "org": "Armagh Planetarium", "location": "Armagh", "region": "Northern Ireland", "source": "" },
		{ "year": 1999, "round": "1999B", "amount": 4971, "title": "UPGRADE OF 28-INCH TELESCOPE", "org": "Royal Observatory Greenwich", "location": "London", "region": "London", "source": "" },
		{ "year": 1999, "round": "1999B", "amount": 5150, "title": "BABAR MAGIC CUBES", "org": "Bristol University", "location": "Bristol", "region": "South West", "source": "" },
		{ "year": 1999, "round": "1999B", "amount": 300, "title": "SCIENCE IN OUR COMMUNITY", "org": "St Francis Primary School", "location": "Glasgow", "region": "Scotland", "source": "" },
		{ "year": 1999, "round": "1999B", "amount": 5000, "title": "CONCISE Project", "org": "Manchester Metropolitan University", "location": "Manchester", "region": "North West", "source": "" },
		{ "year": 1999, "round": "1999B", "amount": 9650, "title": "BEAGLE 2 AND YOU", "org": " The Open University", "location": "Milton Keynes", "region": "South East", "source": "" },
		{ "year": 1999, "round": "1999B", "amount": 6237, "title": "Over the Moon", "org": "Physico Theatre", "location": "Rossendale", "region": "North West", "source": "" },
		{ "year": 1999, "round": "1999B", "amount": 5000, "title": "THE REMOTE CHALLENGER LEARNING CENTRE", "org": "", "location": "National Space Science Centre", "region": "Leicester", "source": "" },
		{ "year": 1999, "round": "1999B", "amount": 750, "title": "LIFTOFF! THE STUDENT PAYLOAD COMPETITION", "org": " University of Surrey", "location": "Guilford", "region": "South East", "source": "" },
		{ "year": 1999, "round": "1999B", "amount": 3000, "title": "ICE COLONY ALPHA - AUDIO MATHS PROJECT 'SPACEBOX'", "org": "National Association of the Education of Sick Children", "location": "London", "region": "London", "source": "" },
		{ "year": 1999, "round": "1999B", "amount": 540, "title": "EUREKA 2000", "org": "Arnold Schools Limited", "location": "Preston", "region": "North West", "source": "" },
		{ "year": 1999, "round": "1999B", "amount": 5500, "title": "VIDEO OF THE ATLAS EXPERIMENT", "org": "The University of Birmingham", "location": "Birmingham", "region": "West Midlands", "source": "" }
	]
}